[
  {
    "sensorId": "ACOUSTIC-01",
    "name": "Acoustic Array Alpha",
    "type": "ACOUSTIC",
    "position": {
      "latitude": 38.89624585477271,
      "longitude": -77.03707091153503
    },
    "orientation": 0,
    "fov": 360,
    "range": 900,
    "active": true,
    "sensitivity": "HIGH",
    "detections": [
      "THREAT-001"
    ]
  },
  {
    "sensorId": "ACOUSTIC-02",
    "name": "Acoustic Array Bravo",
    "type": "ACOUSTIC",
    "position": {
      "latitude": 38.912,
      "longitude": -77.028
    },
    "orientation": 0,
    "fov": 360,
    "range": 750,
    "active": true,
    "sensitivity": "HIGH",
    "detections": [
      "THREAT-002"
    ]
  },
  {
    "sensorId": "ACOUSTIC-03",
    "name": "Acoustic Array Charlie",
    "type": "ACOUSTIC",
    "position": {
      "latitude": 38.90613595762115,
      "longitude": -77.06291198730469
    },
    "orientation": 0,
    "fov": 360,
    "range": 800,
    "active": true,
    "sensitivity": "MEDIUM",
    "detections": []
  },
  {
    "sensorId": "ACOUSTIC-04",
    "name": "Acoustic Array Delta",
    "type": "ACOUSTIC",
    "position": {
      "latitude": 38.883943175259574,
      "longitude": -77.01227188110352
    },
    "orientation": 0,
    "fov": 360,
    "range": 700,
    "active": true,
    "sensitivity": "MEDIUM",
    "detections": [
      "THREAT-002"
    ]
  },
  {
    "sensorId": "RF-01",
    "name": "RF Intercept Alpha",
    "type": "RF",
    "position": {
      "latitude": 38.906,
      "longitude": -77.038
    },
    "orientation": 120,
    "fov": 90,
    "range": 2500,
    "active": true,
    "frequency_band": "2.4GHz / 5.8GHz",
    "detections": [
      "THREAT-001",
      "THREAT-002"
    ]
  },
  {
    "sensorId": "RF-02",
    "name": "RF Intercept Bravo",
    "type": "RF",
    "position": {
      "latitude": 38.898,
      "longitude": -77.03
    },
    "orientation": 310,
    "fov": 90,
    "range": 2000,
    "active": true,
    "frequency_band": "900MHz / 2.4GHz",
    "detections": [
      "THREAT-002"
    ]
  },
  {
    "sensorId": "RF-03",
    "name": "RF Intercept Charlie",
    "type": "RF",
    "position": {
      "latitude": 38.91561657877257,
      "longitude": -77.06583520362672
    },
    "orientation": 75,
    "fov": 100,
    "range": 3000,
    "active": true,
    "frequency_band": "433MHz / 915MHz",
    "detections": [
      "THREAT-001"
    ]
  },
  {
    "sensorId": "IMAGERY-01",
    "name": "EO/IR Camera Alpha",
    "type": "IMAGERY",
    "position": {
      "latitude": 38.89997894008122,
      "longitude": -77.00454711914064
    },
    "orientation": 135,
    "fov": 30,
    "range": 3500,
    "active": true,
    "modality": "EO",
    "detections": [
      "THREAT-001"
    ]
  },
  {
    "sensorId": "IMAGERY-02",
    "name": "EO/IR Camera Bravo",
    "type": "IMAGERY",
    "position": {
      "latitude": 38.9,
      "longitude": -77.045
    },
    "orientation": 60,
    "fov": 25,
    "range": 4000,
    "active": true,
    "modality": "IR",
    "detections": [
      "THREAT-002"
    ]
  }
]
